     2.11           OBSERVATION DATA    Mixed(MIXED)        RINEX VERSION / TYPE
cnvtToRINEX 2.03.0  convertToRINEX OPR  28-Feb-11 14:16 UTC PGM / RUN BY / DATE 
----------------------------------------------------------- COMMENT             
8909                                                        MARKER NAME         
8909                                                        MARKER NUMBER       
GNSS Observer       Trimble                                 OBSERVER / AGENCY   
4804144251          R8 Model 2          Version 3.64        REC # / TYPE / VERS 
                    TRM60158.00                             ANT # / TYPE        
  4929478.0463   -28766.6571  4033740.2702                  APPROX POSITION XYZ 
        1.9000        0.0000        0.0000                  ANTENNA: DELTA H/E/N
     1     1     0                                          WAVELENGTH FACT L1/2
     5    C1    C2    L1    L2    P2                        # / TYPES OF OBSERV 
  2011     2    28    13    31   50.0000000     GPS         TIME OF FIRST OBS   
  2011     2    28    14     4   25.0000000     GPS         TIME OF LAST OBS    
     0                                                      RCV CLOCK OFFS APPL 
    15                                                      LEAP SECONDS        
    18                                                      # OF SATELLITES     
   G02   392     0   390   390   392                        PRN / # OF OBS      
   G04   392     0   392   392   392                        PRN / # OF OBS      
   G05    22    22    22    44    22                        PRN / # OF OBS      
   G07   391   390   389   775   387                        PRN / # OF OBS      
   G08   304     0   282   270   287                        PRN / # OF OBS      
   G10   392     0   392   392   392                        PRN / # OF OBS      
   G13   392     0   392   392   392                        PRN / # OF OBS      
   G17    22    21    20    39    20                        PRN / # OF OBS      
   G20   380     0   362   353   368                        PRN / # OF OBS      
   G23   390     0   386   384   387                        PRN / # OF OBS      
   R01   350     0   349   346   347                        PRN / # OF OBS      
   R02   391     0   390   391   391                        PRN / # OF OBS      
   R11   337     0   333   331   334                        PRN / # OF OBS      
   R12   391     0   391   391   391                        PRN / # OF OBS      
   R13   287     0   285   271   274                        PRN / # OF OBS      
   R17   316     0   308   307   309                        PRN / # OF OBS      
   R18   384     0   383   380   384                        PRN / # OF OBS      
   R19    11     0    11     1    10                        PRN / # OF OBS      
CARRIER PHASE MEASUREMENTS: PHASE SHIFTS REMOVED            COMMENT             
                                                            END OF HEADER       
 11  2 28 13 31 50.0000000  0 16G02G04G07G08G10G13G17G20G23R01R02R11
                                R12R13R17R18
  22527689.086 7                   -578290.975 7   -410051.96348  22527682.94948
  20593906.672 7                   -142315.266 7   -103992.19948  20593902.01648
  22312367.273 6  22312363.496 9   -573672.801 6   -426591.952 9  22312363.52047
  24649943.453 3                   -696710.409 3   -499047.10745  24649943.55545
  21574180.359 7                   -440212.809 7   -323130.81248  21574175.09448
  20159532.789 7                     35621.205 7     26243.45049  20159527.23449
  24435415.719 6  24435413.602 9    417737.346 6    319304.620 9  24435413.80147
  23108319.461 5                    344109.572 5    249072.03046  23108315.90646
  21789481.414 7                    326180.505 7    238895.05548  21789474.12548
  21975436.727 7                    277875.380 7    205734.181 8  21975443.121 8
  19981973.117 9                   -127270.254 9    -94211.274 9  19981980.414 9
  21682862.406 6                    242033.680 6    179454.101 8  21682869.020 8
  20647552.734 7                   -446216.926 7   -329944.882 9  20647562.945 9
  23174371.141 6                   -645644.090 6   -481288.202 8  23174379.656 8
  21946454.047 6                    420271.088 6    311362.996 8  21946462.590 8
  21922170.063 8                   -124733.763 8    -92183.249 9  21922177.883 9
 11  2 28 13 31 55.0000000  0 16G02G04G07G08G10G13G17G20G23R01R02R11
                                R12R13R17R18
  22524473.070 7                   -595192.250 7   -423221.78348  22524466.78548
  20593144.477 7                   -146318.992 7   -107111.98849  20593140.26249
  22309018.602 6  22309014.680 9   -591270.284 6   -440304.276 9  22309014.71147
  24646010.141 3                   -717385.837 3   -515157.78545  24646009.27745
  21571728.266 7                   -453097.688 7   -333170.97748  21571723.76648
  20159753.070 7                     36780.582 7     27146.87049  20159747.85949
  24437885.789 6  24437883.297 9    430717.074 6    329418.656 9  24437883.78947
  23110335.898 5                    354704.983 5    257328.19246  23110331.97746
  21791286.008 7                    335664.841 7    246285.44348  21791278.95748
  21977054.828 7                    286525.357 7    212461.932 8  21977061.789 8
  19981223.586 9                   -131270.820 9    -97322.823 9  19981230.516 9
  21684320.109 6                    249821.048 6    185510.946 8  21684325.820 8
  20644970.695 7                   -460014.856 7   -340676.616 9  20644979.809 9
  23169692.258 6                   -670626.889 6   -500719.249 8  23169700.973 8
  21948929.805 5                    433518.856 5    321666.811 8  21948937.652 8
  21921480.750 8                   -128410.762 8    -95043.148 9  21921489.152 9
 11  2 28 13 32  0.0000000  0 16G02G04G07G08G10G13G17G20G23R01R02R11
                                R12R13R17R18
  22521257.078 7                   -612092.434 7   -436390.76148  22521250.52748
  20592384.031 7                   -150315.410 7   -110226.08449  20592379.44549
  22305669.852 6  22305666.648 9   -608867.538 6   -454016.416 9  22305666.18447
  24642074.156 4                   -738069.766 4   -531275.12345  24642072.62545
  21569275.727 7                   -465985.492 7   -343213.41948  21569271.25848
  20159974.578 7                     37943.700 7     28053.19049  20159969.08649
  24440353.438 6  24440351.406 9    443688.281 6    339526.058 9  24440352.03147
  23112351.109 5                    365296.622 5    265581.40846  23112347.53146
  21793090.422 7                    345146.695 7    253673.89648  21793083.20748
  21978671.906 7                    295171.179 7    219186.455 8  21978679.328 8
  19980474.359 9                   -135272.900 9   -100435.550 9  19980480.828 9
  21685779.297 6                    257620.047 6    191576.838 8  21685785.371 8
  20642389.727 7                   -473802.401 7   -351400.267 9  20642398.434 9
  23165012.102 5                   -695615.674 5   -520154.967 8  23165021.492 8
  21951406.484 6                    446770.655 6    331973.745 8  21951414.223 8
  21920794.688 8                   -132074.687 8    -97892.878 9  21920802.629 9
 11  2 28 13 32  5.0000000  0 16G02G04G07G08G10G13G17G20G23R01R02R11
                                R12R13R17R18
  22518041.602 7                   -628991.069 7   -449558.52948  22518034.94948
  20591624.898 7                   -154303.916 7   -113334.01249  20591620.15249
  22302321.844 6  22302317.719 9   -626464.108 6   -467728.029 9  22302317.48847
  24638136.555 4                   -758761.686 4   -547398.67946  24638135.22346
  21566823.141 7                   -478875.765 7   -353257.78348  21566818.54748
  20160196.578 7                     39110.960 7     28962.75149  20160191.19149
  24442820.805 6  24442818.449 9    456651.517 6    349627.238 9  24442818.65247
  23114365.828 5                    375884.907 5    273832.02347  23114362.64847
  21794894.297 7                    354626.562 7    261060.80648  21794887.28548
  21980288.750 6                    303813.298 6    225908.098 8  21980296.898 8
  19979723.383 9                   -139276.232 9   -103549.252 9  19979729.699 9
  21687240.938 6                    265431.015 6    197652.023 8  21687246.668 8
  20639810.063 7                   -487579.091 7   -362115.460 9  20639819.605 9
  23160331.000 5                   -720610.208 5   -539595.126 8  23160341.320 8
  21953883.789 6                    460026.883 6    342284.135 9  21953891.461 9
  21920110.867 8                   -135725.011 8   -100732.012 9  21920118.766 9
 11  2 28 13 32 10.0000000  0 16G02G04G07G08G10G13G17G20G23R01R02R11
                                R12R13R17R18
  22514825.805 7                   -645889.464 7   -462726.11248  22514819.18848
  20590866.977 7                   -158285.977 7   -116436.91049  20590862.37149
  22298973.039 6  22298968.977 9   -644061.252 6   -481440.097 9  22298969.18847
  24634196.977 3                   -779462.977 3   -563529.50946  24634195.73846
  21564368.992 7                   -491769.865 7   -363305.13548  21564364.71948
  20160419.742 7                     40281.080 7     29874.53149  20160414.16849
  24445285.539 6  24445283.770 9    469605.413 6    359721.147 9  24445283.91447
  23116379.469 5                    386468.502 5    282078.97347  23116376.37947
  21796697.164 7                    364103.091 7    268445.10748  21796690.53548
  21981904.820 6                    312450.471 6    232625.893 8  21981912.535 8
  19978972.922 9                   -143281.903 9   -106664.772 9  19978979.570 9
  21688703.797 6                    273252.691 6    203735.569 8  21688710.387 8
  20637232.813 7                   -501346.177 7   -372823.196 9  20637242.266 9
  23155648.992 5                   -745611.545 5   -559040.572 8  23155660.117 8
  21956362.234 6                    473286.135 6    352596.882 9  21956369.016 9
  21919429.172 8                   -139362.855 8   -103561.450 9  21919437.340 9
 11  2 28 13 32 15.0000000  0 16G02G04G07G08G10G13G17G20G23R01R02R11
                                R12R13R17R18
  22511610.484 7                   -662786.528 7   -475892.64648  22511603.85548
  20590111.102 7                   -162260.482 7   -119533.92248  20590106.27348
  22295624.938 6  22295620.934 9   -661657.940 6   -495151.795 9  22295620.77747
  24630254.961 4                   -800172.572 4   -579666.77146  24630254.48846
  21561914.961 7                   -504666.598 7   -373354.53048  21561910.78148
  20160642.500 7                     41455.136 7     30789.38249  20160637.20349
  24447748.688 6  24447746.816 9    482551.045 6    369808.606 9  24447747.03947
  23118393.641 5                    397048.529 5    290323.13347  23118389.77747
  21798500.453 7                    373577.388 7    275827.67848  21798493.58248
  21983520.594 6                    321083.733 6    239340.641 8  21983527.602 8
  19978221.859 9                   -147289.064 9   -109781.454 9  19978228.340 9
  21690170.117 6                    281086.066 6    209828.186 8  21690176.164 8
  20634657.781 7                   -515102.615 7   -383522.654 9  20634666.977 9
  23150966.688 6                   -770618.624 6   -578490.482 8  23150977.824 8
  21958839.102 6                    486549.432 6    362912.759 9  21958847.676 9
  21918750.273 8                   -142987.324 8   -106380.479 9  21918758.254 9
 11  2 28 13 32 20.0000000  0 16G02G04G07G08G10G13G17G20G23R01R02R11
                                R12R13R17R18
  22508395.234 7                   -679681.915 7   -489057.88248  22508388.76248
  20589356.070 7                   -166227.001 7   -122624.72949  20589351.58249
  22292276.141 6  22292272.164 9   -679253.770 6   -508862.817 9  22292271.97347
  24626313.750 4                   -820890.021 4   -595810.24446  24626312.09446
  21559460.266 7                   -517565.720 7   -383405.79448  21559455.87548
  20160867.055 7                     42633.444 7     31707.54849  20160861.69949
  24450210.867 5  24450209.293 9    495488.686 5    379889.800 9  24450209.39147
  23120406.234 5                    407625.276 5    298564.74347  23120402.91447
  21800303.070 7                    383049.780 7    283208.75948  21800296.12548
  21985135.031 6                    329713.321 6    246052.552 8  21985142.242 8
  19977470.469 9                   -151297.217 9   -112898.912 9  19977477.113 9
  21691638.680 7                    288931.507 7    215930.192 8  21691645.566 8
  20632084.469 7                   -528848.095 7   -394213.574 9  20632093.395 9
  23146282.898 6                   -795631.163 6   -597944.683 8  23146293.762 8
  21961319.906 6                    499817.059 6    373232.007 8  21961326.953 8
  21918073.492 8                   -146598.026 8   -109188.797 9  21918081.281 9
 11  2 28 13 32 25.0000000  0 16G02G04G07G08G10G13G17G20G23R01R02R11
                                R12R13R17R18
  22505180.648 7                   -696575.455 7   -502221.67748  22505174.17248
  20588603.117 7                   -170185.473 7   -125709.24649  20588598.56349
  22288927.891 6  22288923.867 9   -696848.593 6   -522573.077 9  22288923.87547
  24622369.742 4                   -841615.227 4   -611959.68746  24622367.83246
  21557005.289 7                   -530467.049 7   -393458.77948  21557000.29348
  20161091.859 7                     43816.181 7     32629.15749  20161087.21149
  24452671.875 6  24452670.012 9    508418.537 6    389965.033 9  24452670.02047
  23122418.563 5                    418198.919 5    306803.95246  23122414.67246
  21802105.164 7                    392520.317 7    290588.39048  21802098.36348
  21986748.445 6                    338339.531 6    252761.809 8  21986755.941 8
  19976719.148 9                   -155306.203 9   -116017.010 9  19976726.238 9
  21693108.492 6                    296789.095 6    222041.656 8  21693115.477 8
  20629513.391 7                   -542582.323 7   -404895.746 9  20629521.762 9
  23141597.289 6                   -820648.993 6   -617402.960 8  23141610.184 8
  21963800.203 6                    513089.256 6    383554.840 8  21963807.883 8
  21917399.570 8                   -150194.874 8   -111986.352 9  21917407.574 9
 11  2 28 13 32 30.0000000  0 16G02G04G07G08G10G13G17G20G23R01R02R11
                                R12R13R17R18
  22501966.523 7                   -713465.817 7   -515383.00348  22501960.00448
  20587851.492 8                   -174134.558 8   -128786.46249  20587846.94549
  22285580.195 6  22285576.223 9   -714441.067 6   -536281.509 9  22285576.34047
  24618424.633 5                   -862346.823 5   -628114.15946  24618423.34046
  21554550.008 7                   -543369.273 7   -403512.45948  21554545.43048
  20161318.547 7                     45004.638 7     33555.22949  20161313.36349
  24455130.773 5  24455129.398 9    521341.853 5    400035.113 9  24455129.34047
  23124429.656 5                    428770.792 5    315041.76247  23124426.63347
  21803907.258 7                    401990.406 7    297967.67648  21803900.58648
  21988361.516 7                    346963.669 7    259469.471 8  21988368.691 8
  19975968.352 9                   -159314.734 9   -119134.758 9  19975975.207 9
  21694582.547 6                    304660.267 6    228163.673 8  21694588.227 8
  20626945.375 8                   -556304.071 8   -415568.226 9  20626953.574 9
  23136911.945 6                   -845670.785 6   -636864.339 8  23136924.543 8
  21966281.594 6                    526367.376 6    393882.264 8  21966288.699 8
  21916728.133 8                   -153776.552 8   -114772.103 9  21916737.410 9
 11  2 28 13 32 35.0000000  0 16G02G04G07G08G10G13G17G20G23R01R02R11
                                R12R13R17R18
  22498752.516 7                   -730353.953 7   -528542.58648  22498746.09448
  20587101.453 7                   -178075.163 7   -131857.06249  20587097.01649
  22282233.055 6  22282228.672 9   -732032.202 6   -549988.871 9  22282228.65647
  24614478.023 5                   -883085.745 5   -644274.32546  24614476.85946
  21552094.438 7                   -556273.343 7   -413567.57448  21552089.81648
  20161545.266 7                     46197.841 7     34484.99549  20161540.08249
  24457588.359 5  24457587.254 9    534257.677 5    410099.344 9  24457587.35547
  23126441.484 6                    439339.869 6    323277.39747  23126437.73047
  21805708.977 7                    411458.985 7    305345.78748  21805702.26248
  21989974.063 7                    355584.696 7    266174.706 8  21989981.781 8
  19975216.797 9                   -163323.788 9   -122252.915 9  19975223.707 9
  21696056.492 6                    312543.956 6    234295.434 8  21696064.488 8
  20624378.289 8                   -570014.294 8   -426231.735 9  20624387.703 9
  23132225.969 6                   -870697.366 6   -656329.460 8  23132238.238 8
  21968763.133 6                    539650.352 6    404213.470 8  21968771.113 8
  21916060.500 8                   -157343.663 8   -117546.535 9  21916068.391 9
 11  2 28 13 32 40.0000000  0 16G02G04G07G08G10G13G17G20G23R01R02R11
                                R12R13R17R18
  22495540.000 7                   -747238.693 7   -541699.52348  22495533.25448
  20586353.484 7                   -182006.217 7   -134920.22649  20586348.74649
  22278886.406 6  22278881.574 9   -749620.723 6   -563694.222 9  22278881.04747
  24610530.430 5                   -903830.935 5   -660439.35846  24610528.98846
  21549638.727 7                   -569178.085 7   -423623.22848  21549633.59048
  20161773.875 7                     47396.945 7     35419.36549  20161767.91849
  24460044.414 5  24460044.004 9    547167.153 5    420158.680 9  24460044.12547
  23128452.109 5                    449907.331 5    331511.77347  23128448.75047
  21807511.039 7                    420927.301 7    312723.68848  21807504.04348
  21991587.031 7                    364203.930 7    272878.553 8  21991594.543 8
  19974465.414 9                   -167332.089 9   -125370.477 9  19974472.547 9
  21697534.164 6                    320441.355 6    240437.844 8  21697541.945 8
  20621814.453 7                   -583711.657 7   -436885.230 9  20621822.816 9
  23127538.031 6                   -895727.585 6   -675797.369 8  23127550.516 8
  21971246.727 6                    552939.225 6    414549.253 8  21971254.453 8
  21915394.742 8                   -160895.693 8   -120309.220 9  21915403.492 9
 11  2 28 13 32 45.0000000  0 16G02G04G07G08G10G13G17G20G23R01R02R11
                                R12R13R17R18
  22492327.125 7                   -764121.278 7   -554854.77948  22492320.85548
  20585607.148 7                   -185928.940 7   -137976.88649  20585602.35949
  22275539.336 5  22275535.422 9   -767207.911 5   -577398.523 9  22275534.96947
  24606580.953 5                   -924583.486 5   -676610.14846  24606580.18846
  21547182.945 7                   -582084.726 7   -433680.34948  21547177.87148
  20162002.789 7                     48600.691 7     36357.35149  20161997.35549
  24462499.852 5  24462499.324 9    560069.053 5    430212.063 9  24462499.42647
  23130462.500 5                    460471.991 5    339743.96947  23130459.39847
  21809312.148 7                    430394.021 7    320100.35848  21809305.37948
  21993198.680 7                    372819.957 7    279579.906 8  21993205.727 8
  19973714.641 9                   -171341.008 9   -128488.522 9  19973721.145 9
  21699014.680 6                    328351.200 6    246589.929 8  21699021.188 8
  20619252.945 8                   -597397.546 8   -447529.793 9  20619260.703 9
  23122849.813 6                   -920762.671 6   -695269.088 8  23122863.125 8
  21973730.969 6                    566232.827 6    424888.731 8  21973738.859 8
  21914731.969 8                   -164433.392 8   -123060.769 9  21914741.074 9
 11  2 28 13 32 50.0000000  0 16G02G04G07G08G10G13G17G20G23R01R02R11
                                R12R13R17R18
  22489114.852 7                   -781001.456 7   -568008.16948  22489107.84448
  20584862.219 7                   -189843.074 7   -141026.87049  20584857.69949
  22272192.594 6  22272188.434 9   -784793.570 6   -591101.637 9  22272188.10947
  24602631.281 5                   -945343.267 5   -692786.59946  24602629.63346
  21544726.641 7                   -594993.074 7   -443738.80448  21544721.71548
  20162232.773 7                     49809.315 7     37299.13449  20162227.26649
  24464952.969 5  24464952.969 9    572963.619 5    440259.736 9  24464953.25447
  23132472.336 5                    471034.011 5    347974.10747  23132468.96147
  21811113.469 7                    439859.410 7    327475.97348  21811106.56648
  21994809.586 7                    381433.062 7    286278.978 8  21994815.820 8
  19972963.422 9                   -175350.269 9   -131606.843 9  19972969.352 9
  21700497.789 6                    336273.614 6    252751.809 8  21700503.691 8
  20616693.594 8                   -611071.700 8   -458165.242 9  20616700.965 9
  23118160.148 6                   -945802.412 6   -714744.463 8  23118174.020 8
  21976215.953 6                    579531.351 6    435232.014 9  21976224.309 9
  21914072.273 8                   -167956.655 8   -125801.099 9  21914080.746 9
 11  2 28 13 32 55.0000000  0 16G02G04G07G08G10G13G17G20G23R01R02R11
                                R12R13R17R18
  22485902.594 7                   -797880.214 7   -581160.44248  22485896.44548
  20584118.883 7                   -193749.557 7   -144070.87949  20584114.15249
  22268846.563 6  22268842.328 9   -802378.575 6   -604804.240 9  22268842.15247
  24598679.000 5                   -966111.166 5   -708969.30746  24598677.49646
  21542269.688 7                   -607904.109 7   -453799.34348  21542265.21548
  20162463.055 7                     51021.824 7     38243.94449  20162457.72349
  24467405.586 5  24467405.660 9    585849.637 5    450300.759 9  24467405.70347
  23134481.891 5                    481592.441 5    356201.43947  23134478.25847
  21812914.117 7                    449322.461 7    334849.78548  21812907.23048
  21996420.078 6                    390042.212 6    292974.989 8  21996425.949 8
  19972211.992 9                   -179360.881 9   -134726.209 9  19972218.055 9
  21701982.805 6                    344207.742 6    258922.796 8  21701988.371 8
  20614135.109 8                   -624735.021 8   -468792.273 9  20614143.617 9
  23113470.656 6                   -970847.746 6   -734224.126 8  23113483.098 8
  21978701.305 5                    592833.854 5    445578.410 9  21978709.344 9
  21913415.250 8                   -171466.510 8   -128530.987 9  21913422.605 9
 11  2 28 13 33  0.0000000  0 16G02G04G07G08G10G13G17G20G23R01R02R11
                                R12R13R17R18
  22482691.555 7                   -814756.394 7   -594310.70948  22482685.34448
  20583377.156 7                   -197647.307 7   -147108.08549  20583372.53549
  22265500.227 6  22265496.344 9   -819961.854 6   -618505.496 9  22265496.18847
  24594726.242 5                   -986886.078 5   -725157.51746  24594724.33246
  21539812.367 7                   -620816.662 7   -463861.07748  21539808.01248
  20162695.539 7                     52239.340 7     39192.65949  20162690.08649
  24469856.406 5  24469855.801 9    598728.430 5    460336.148 9  24469855.69947
  23136490.477 6                    492148.355 6    364426.83247  23136486.57447
  21814714.469 7                    458784.286 7    342222.63148  21814707.77748
  21998029.695 6                    398648.704 6    299668.896 8  21998036.203 8
  19971459.852 9                   -183371.660 9   -137845.705 9  19971466.625 9
  21703469.578 6                    352154.551 6    265103.655 8  21703475.281 8
  20611579.102 8                   -638386.437 8   -479410.028 9  20611588.406 9
  23108779.883 6                   -995897.693 6   -753707.392 8  23108792.863 8
  21981188.203 6                    606141.388 6    455928.697 9  21981196.410 9
  21912760.195 8                   -174961.732 8   -131249.491 9  21912767.711 9
 11  2 28 13 33  5.0000000  0 16G02G04G07G08G10G13G17G20G23R01R02R11
                                R12R13R17R18
  22479480.797 7                   -831625.806 7   -607455.71748  22479475.05548
  20582636.930 7                   -201537.785 7   -150139.63749  20582632.14849
  22262152.984 6  22262148.973 9   -837550.715 6   -632211.115 9  22262148.76247
  24590768.531 5                  -1007680.933 5   -741361.27346  24590767.41046
  21537355.367 7                   -633728.508 7   -473922.26248  21537350.24648
  20162928.695 7                     53467.417 7     40149.61748  20162923.54748
  24472302.680 4  24472301.855 9    611584.510 4    470353.830 9  24472301.99247
  23138500.406 5                    502709.494 5    372656.24746  23138496.21546
  21816517.836 7                    468258.780 7    349605.36948  21816511.10548
  21999642.711 6                    407264.862 6    306370.353 8  21999647.922 8
  19970710.305 8                   -187372.717 8   -140957.644 9  19970717.113 9
  21704961.883 6                    360130.542 6    271307.224 8  21704968.578 8
  20609025.953 8                   -652023.376 8   -490016.533 9  20609034.852 9
  23104085.984 6                  -1020962.731 6   -773202.430 8  23104095.406 8
  21983675.000 7                    619442.107 7    466273.658 8  21983681.266 8
  21912108.445 8                   -178440.359 8   -133955.108 9  21912116.293 9
 11  2 28 13 33 10.0000000  0 16G02G04G07G08G10G13G17G20G23R01R02R11
                                R12R13R17R18
  22476284.914 6                   -848420.932 6   -620542.85748  22476279.45348
  20581900.594 7                   -205406.995 7   -153154.65249  20581895.80949
  22258790.547 6  22258786.957 9   -855220.328 6   -645979.673 9  22258786.85548
  24586791.484 1                                                  24586790.40646
  21534908.719 7                   -646586.252 7   -483941.31348  21534903.88348
  20163167.125 7                     54719.644 7     41125.34648  20163161.34048
  24474734.852 5  24474734.082 8    624364.971 5    480312.509 8  24474734.50047
  23140502.086 5                    513231.306 5    380854.96046  23140498.25046
  21818326.766 6                    477765.597 6    357013.19547  21818320.32847
  22001253.000 6                    415876.021 6    313067.845 8  22001259.906 8
  19969970.383 8                   -191321.601 8   -144029.054 9  19969976.875 9
  21706466.258 6                    368166.911 6    277557.641 8  21706473.000 8
  20606466.609 8                   -665697.312 8   -500651.875 9  20606475.695 9
  23099371.555 6                  -1046134.625 6   -792780.538 8  23099379.484 8
  21986157.180 7                    632724.051 7    476604.026 8  21986163.281 8
  21911471.969 7                   -181837.362 7   -136597.274 9  21911479.824 9
 11  2 28 13 33 15.0000000  0 15G02G04G07G08G10G13G17G20G23R01R02R11
                                R12R17R18
  22473106.758 6                   -865124.329 6   -633558.55547  22473100.62947
  20581177.414 7                   -209204.846 7   -156114.03648  20581173.30548
  22255424.672 6  22255420.262 9   -872910.548 6   -659764.279 9  22255420.29348
  24582817.242 6                  -1049465.16816   -773920.41757  24582815.50047
  21532477.703 6                   -659359.170 6   -493894.26247  21532473.45347
  20163402.883 7                     55958.796 7     42090.87848  20163397.56648
  24477184.969 4  24477184.371 8    637242.927 4    490347.252 8  24477184.43047
  23142477.250 5                    523611.623 5    388943.53747  23142473.86347
  21820116.617 6                    487170.625 6    364341.77347  21820109.85947
  22002836.172 5                    424340.695 5    319651.422 8  22002843.578 8
  19969226.719 7                   -195288.742 7   -147114.646 9  19969233.223 9
  21707952.703 5                    376107.643 5    283733.721 7  21707958.625 7
  20603891.766 7                   -679451.816 7   -511349.838 9  20603899.938 9
  21988665.109 6                    646144.764 6    487042.327 8  21988671.621 8
  21910859.203 6                   -185110.541 6   -139143.146 8  21910867.012 8
 11  2 28 13 33 20.0000000  0 16G02G04G07G08G10G13G17G20G23R01R02R11
                                R12R13R17R18
  22469933.703 5                   -881799.132 5   -646551.88647  22469927.27047
  20580459.672 7                   -212978.981 7   -159054.91348  20580455.16448
  22252056.438 6  22252052.109 9   -890610.826 6   -673556.697 9  22252051.97748
  24578841.016 4                  -1070358.020 4   -790200.50547  24578839.51647
  21530051.594 6                   -672109.737 6   -503829.75947  21530047.19547
  20163639.258 7                     57199.168 7     43057.41448  20163633.69148
  24479637.398 2  24479637.527 8                                  24479637.37146
  23144446.313 5                    533953.307 5    397001.96547  23144441.70747
  21821901.758 6                    496552.452 6    371652.28547  21821895.16447
  22004412.563 4                    432767.827 4    326205.862 7  22004419.496 7
  19968482.734 7                   -199257.601 7   -150201.527 9  19968489.301 9
  21709436.609 4                    384038.740 4    289902.360 7  21709443.008 7
  20601314.016 7                   -693220.250 7   -522058.609 9  20601322.250 9
  23089934.313 4                  -1096525.67114   -831973.83918  23089943.414 8
  21991179.055 6                    659600.133 6    497507.604 8  21991185.941 8
  21910254.422 6                   -188338.405 6   -141653.676 8  21910262.262 8
 11  2 28 13 33 25.0000000  0 16G02G04G07G08G10G13G17G20G23R01R02R11
                                R12R13R17R18
  22466760.484 5                   -898473.772 5   -659545.12647  22466754.07047
  20579742.719 7                   -216743.092 7   -161987.99048  20579738.48048
  22248689.313 6  22248685.465 9   -908303.899 6   -687343.502 9  22248685.55948
  24574865.961 5                  -1091247.98715   -806478.36857  24574864.52347
  21527624.766 6                   -684863.089 6   -513767.45747  21527619.99247
  20163875.016 7                     58440.367 7     44024.57348  20163869.84048
  24482092.063 4  24482091.266 8    663027.88514    510439.31018  24482090.53946
  23146412.023 5                    544286.711 5    405053.97647  23146407.84447
  21823684.969 6                    505922.756 6    378953.82547  21823678.21547
  22005987.563 4                    441182.645 4    332750.704 7  22005994.449 7
  19967738.141 7                   -203234.087 7   -153294.355 9  19967744.902 9
  21710921.953 5                    391971.086 5    296071.959 7  21710928.047 7
  20598738.055 7                   -706978.304 7   -532759.318 9  20598747.211 9
  23085215.891 5                  -1121724.228 5   -851572.679 8  23085224.418 8
  21993697.297 6                    673069.691 6    507983.941 8  21993703.199 8
  21909652.305 6                   -191552.426 6   -144153.474 8  21909659.871 8
 11  2 28 13 33 30.0000000  0 16G02G04G07G08G10G13G17G20G23R01R02R11
                                R12R13R17R18
  22463576.391 6                   -915206.620 6   -672583.64948  22463569.69148
  20579020.570 7                   -220539.556 7   -164946.25548  20579016.39548
  22245326.133 6  22245322.180 9   -925976.472 6   -701114.312 9  22245322.39848
  24570886.750 5                                                  24570885.79747
  21525186.297 7                   -697676.299 7   -523751.72848  21525181.67648
  20164114.594 7                     59698.754 7     45005.18648  20164108.53148
  24484531.523 3                                                
  23148395.031 5                    554711.014 5    413176.79246  23148391.89546
  21825480.219 6                    515357.493 6    386305.59147  21825473.81347
  22007578.648 5                    449689.779 5    339367.403 7  22007584.965 7
  19966994.516 8                   -207200.027 8   -156378.931 9  19967000.922 9
  21712421.055 5                    399986.394 5    302306.123 7  21712427.535 7
  20596177.000 7                   -720660.729 7   -543401.193 8  20596185.652 8
  23080499.188 4                  -1146915.57014   -871165.84318  23080507.414 8
  21996200.039 6                    686457.074 6    518396.333 8  21996205.254 8
  21909039.875 6                   -194825.834 6   -146699.407 8  21909047.375 8
 11  2 28 13 33 35.0000000  0 13G02G04G07G08G10G13G17G23R02R11R12R17
                                R18
  22460383.273 7                   -931986.270 7   -685658.67648  22460376.94948
  20578289.648 7                   -224380.667 7   -167939.28749  20578285.26649
  22241960.711 6  22241955.840 8   -943664.413 6   -714897.134 8  22241956.03947
  24566893.898 4                  -1133141.88614   -839122.92156  24566892.32846
  21522737.859 7                   -710545.127 7   -533779.38048  21522732.82848
  20164360.930 7                     60992.239 7     46013.12048  20164355.59048
  24486944.703 3  24486942.801 8    688518.39213    527127.27118
  21827297.977 6                    524908.631 6    393748.05647  21827291.75047
  19966259.922 8                   -211119.747 8   -159427.584 9  19966266.109 9
  21713947.313 6                    408146.831 6    308653.144 8  21713955.352 8
  20593630.836 7                   -734262.680 7   -553980.450 8  20593639.625 8
  21998675.055 7                    699707.709 7    528702.394 8  21998681.012 8
  21908415.680 7                   -198156.767 7   -149290.146 8  21908423.770 8
 11  2 28 13 33 40.0000000  0 15G02G04G07G08G10G13G20G23R01R02R11R12
                                R13R17R18
  22457190.359 7                   -948763.566 7   -698731.89348  22457184.28548
  20577560.172 7                   -228215.116 7   -170927.18649  20577555.42249
  22238594.289 6  22238590.145 8   -961353.167 6   -728680.566 8  22238589.88747
  24562897.961 5                  -1154139.799 5   -855484.92847  24562896.41847
  21520288.445 7                   -723416.214 7   -543808.78548  21520283.49248
  20164608.016 7                     62292.688 7     47026.44848  20164602.67248
  23152408.031 5                     12724.12815                
  21829116.547 6                    534464.484 6    401194.16147  21829109.81647
  22010814.805 6                    466978.78316    352814.28017  22010821.512 7
  19965525.898 8                   -215036.295 8   -162473.799 9  19965532.848 9
  21715479.078 6                    416327.111 6    315015.603 8  21715485.996 8
  20591087.047 7                   -747850.541 7   -564548.793 8  20591096.340 8
  23071045.438 4                  -1197392.70014   -910425.79417  23071054.895 7
  22001149.672 6                    712956.337 6    539006.873 8  22001156.590 8
  21907793.648 7                   -201474.359 7   -151870.461 8  21907801.988 8
 11  2 28 13 33 45.0000000  0 15G02G04G07G08G10G13G20G23R01R02R11R12
                                R13R17R18
  22453989.031 7                   -965587.421 7   -711841.41448  22453983.00848
  20576833.391 8                   -232035.827 8   -173904.35449  20576828.20349
  22235243.555 6  22235239.977 9   -978961.435 6   -742401.313 9  22235239.35947
  24558922.414 5                  -1175035.148 5   -871766.97946  24558920.42646
  21517832.664 7                   -736322.357 7   -553865.52448  21517827.94948
  20164851.305 7                     63570.788 7     48022.36848  20164845.91848
  23154412.195 5                     23259.396 5      5909.51356  23154407.03546
  21830921.133 6                    543951.738 6    408586.82847  21830914.87947
  22012423.023 6                    475582.295 6    359505.917 7  22012429.227 7
  19964780.070 8                   -219014.843 8   -165568.198 9  19964787.453 9
  21716995.930 6                    424435.272 6    321321.956 7  21717002.777 7
  20588549.344 7                   -761404.538 7   -575090.788 8  20588558.531 8
  23066337.656 4                  -1222536.451 4   -929982.185 8  23066345.973 8
  22003638.867 7                    726274.995 7    549365.831 8  22003645.277 8
  21907166.758 7                   -204815.742 7   -154469.330 8  21907175.094 8
 11  2 28 13 33 50.0000000  0 15G02G04G07G08G10G13G20G23R01R02R11R12
                                R13R17R18
  22450782.914 7                   -982435.041 7   -724969.41948  22450777.36348
  20576108.500 8                   -235844.497 8   -176872.14449  20576103.44149
  22231901.797 6  22231897.734 9   -996524.263 6   -756086.628 9  22231897.87948
  24554955.961 5                  -1195877.580 5   -888007.81146  24554954.27746
  21515373.031 7                   -749247.848 7   -563937.32948  21515368.06648
  20165092.969 7                     64840.382 7     49011.65848  20165088.00448
  23156416.656 5                     33792.156 5     14116.85246  23156411.85946
  21832720.336 6                    553403.631 6    415951.91747  21832713.24647
  22014030.141 7                    484162.795 7    366179.567 7  22014035.832 7
  19964028.875 8                   -223025.492 8   -168687.602 9  19964035.223 9
  21718506.883 6                    432512.388 6    327604.167 8  21718515.063 8
  20586017.250 7                   -774932.787 7   -585612.751 8  20586024.816 8
  23061639.719 5                  -1247627.702 5   -949497.604 8  23061648.668 8
  22006135.398 7                    739633.391 7    559755.725 9  22006141.180 9
  21906540.367 7                   -208163.568 7   -157073.199 9  21906548.074 9
 11  2 28 13 33 55.0000000  0 14G02G04G07G08G10G13G20G23R01R02R11R12
                                R17R18
  22447581.734 7                   -999255.247 7   -738076.07748  22447576.18048
  20575385.516 7                   -239646.410 7   -179834.68849  20575380.29349
  22228553.414 6  22228548.445 9  -1014123.299 6   -769800.148 9  22228548.69948
  24550978.000 5                  -1216779.574 5   -904295.04546  24550976.18446
  21512916.070 7                   -762157.778 7   -573997.02048  21512911.32848
  20165338.242 7                     66128.112 7     50015.09648  20165332.97348
  23158420.859 5                     44323.465 5     22323.04046  23158416.28146
  21834524.953 6                    562886.095 6    423340.85547  21834517.62947
  22015636.023 5                    492759.710 5    372866.154 7  22015643.891 7
  19963282.891 8                   -227006.504 8   -171783.944 9  19963289.520 9
  21720030.250 6                    440642.486 6    333927.530 7  21720034.094 7
  20583484.773 7                   -788459.965 7   -596133.895 9  20583493.359 9
  22008627.688 7                    752966.108 7    570125.538 8  22008633.477 8
  21905919.984 7                   -211476.969 7   -159650.281 9  21905927.355 9
 11  2 28 13 34  0.0000000  0 12G02G04G07G08G10G13G23R02R11R12R17R18
  22444392.250 6                  -1016019.144 6   -751138.84248  22444386.25448
  20574662.484 7                   -243444.599 7   -182794.30549  20574657.48849
  22225188.531 6  22225184.297 9  -1031803.200 6   -783576.702 9  22225184.07448
  24546977.727 5                  -1237803.261 5   -920677.07346  24546975.20746
  21510466.109 7                   -775032.057 7   -584028.93348  21510461.98848
  20165589.742 7                     67450.103 7     51045.20848  20165584.39848
  21836342.234 6                    572438.067 6    430783.96947  21836335.76247
  19962549.289 7                   -230921.996 7   -174829.336 9  19962555.785 9
  21721569.977 5                    448875.119 5    340330.698 7  21721575.711 7
  20580950.297 7                   -801998.229 7   -606663.652 8  20580958.875 8
  22011107.539 6                    766236.296 6    580446.827 8  22011113.281 8
  21905309.609 6                   -214734.074 6   -162183.621 9  21905317.387 9
 11  2 28 13 34  5.0000000  0 10G02G04G07G08G10G13G23R02R11R12      
  22441209.484 6                  -1032743.899 6   -764171.10448  22441203.57448
  20573940.523 7                   -247236.244 7   -185748.84749  20573936.09849
  22221814.195 6  22221809.594 8  -1049535.840 6   -797394.341 8  22221809.70748
  24542961.039 5                  -1258911.008 5   -937124.67946  24542958.85546
  21508020.586 6                   -787881.925 6   -594041.81148  21508016.32848
  20165846.141 7                     68798.358 7     52095.80548  20165840.63748
  21838168.375 5                    582037.322 5    438263.90547  21838162.65247
  19961823.813 7                   -234792.439 7   -177839.680 9  19961830.590 9
  21723124.352 5                    457181.278 5    346791.058 8  21723130.984 8
  20578414.953 6                   -815538.542 6   -617194.980 8  20578424.883 8
 11  2 28 13 34 10.0000000  0 11G02G04G07G08G10G13G23R02R11R12R13   
  22438030.398 6                  -1049448.97116   -774583.83258  22438020.14848
  20573220.156 7                   -251021.714 7   -188698.56148  20573216.05948
  22218435.531 6  22218431.008 8  -1067291.543 6   -811229.965 8  22218430.82848
  24538934.641 4                  -1280060.441 4   -953604.73946  24538934.87546
  21505577.391 6                   -800722.352 6   -604047.33548  21505572.72748
  20166105.430 7                     70160.673 7     53157.34248  20166100.11748
  21839999.328 5                    591658.018 5    445760.51347  21839993.49247
  19961101.938 7                   -238642.767 7   -180834.382 9  19961109.004 9
  21724686.320 5                    465529.147 5    353283.807 7  21724692.750 7
  20575882.195 6                   -829072.760 6   -627721.630 8  20575890.348 8
  23042703.273 4                  -1348735.00014  -1028136.66318  23042713.227 8
 11  2 28 13 34 15.0000000  0 11G02G04G07G08G10G13G23R02R11R12R17   
  22434850.453 6                  -1066162.16516   -787607.09858  22434843.61748
  20572502.164 7                   -254795.009 7   -191638.79048  20572497.81648
  22215060.773 6  22215056.660 8  -1085024.087 6   -825047.513 8  22215056.21548
  24534915.547 5                  -1301188.293 5   -970067.95346  24534914.06346
  21503132.813 6                   -813569.970 6   -614058.47148  21503127.84048
  20166364.750 7                     71523.831 7     54219.55048  20166359.46548
  21841827.117 5                    601263.188 5    453245.07847  21841821.21547
  19960378.313 7                   -242505.942 7   -183839.063 9  19960384.387 9
  21726247.367 5                    473871.267 5    359772.148 8  21726253.773 8
  20573353.000 6                   -842587.276 6   -638232.907 8  20573361.559 8
  22018522.813 6                     16401.63516                  22018529.207 8
 11  2 28 13 34 20.0000000  0 14G02G04G07G08G10G13G20G23R02R11R12R13
                                R17R18
  22431670.266 6                  -1082873.813 6   -800629.13448  22431663.91848
  20571786.500 7                   -258558.187 7   -194571.14549  20571782.05949
  22211687.664 6  22211683.539 8  -1102749.657 6   -838859.654 8  22211683.55148
  24530895.633 5                  -1322316.182 5   -986531.21847  24530893.50447
  21500687.359 6                   -826419.275 6   -624070.92348  21500682.56648
  20166624.727 7                     72891.332 7     55285.12548  20166619.73448
  23168441.344 5                     11405.84515                
  21843654.563 6                    610863.327 6    460725.69347  21843648.18847
  19959653.602 7                   -246371.976 7   -186845.992 9  19959660.410 9
  21727809.656 5                    482221.244 5    366266.552 8  21727816.699 8
  20570824.930 6                   -856088.085 6   -648733.531 8  20570833.168 8
  23033209.906 3                  -1399430.90913  -1067566.57017  23033217.641 7
  22020997.031 6                     29646.713 6     12772.43618  22021003.430 8
  21902921.781 7                     -5715.22617     -2067.84619  21902928.598 9
 11  2 28 13 34 25.0000000  0 13G02G04G07G08G10G13G20G23R01R02R11R12
                                R13
  22428489.695 3                                                  22428482.89148
  20571072.336 7                   -262311.230 7   -197495.59448  20571067.87948
  22208317.633 6  22208313.254 8  -1120459.480 6   -852659.500 8  22208313.02348
  24526876.969 5                  -1343432.639 5  -1002985.59247  24526875.25847
  21498241.383 4                   -839273.782 4   -634087.41548  21498237.08648
  20166885.570 7                     74261.114 7     56352.49648  20166880.13748
  23170443.922 5                                                  23170438.88746
  21845479.594 6                    620453.832 6    468198.82547  21845472.52747
  22025356.227 4                     15575.85614                
  19958927.758 8                   -250246.195 8   -189859.268 9  19958933.672 9
  21729374.125 5                    490572.984 5    372762.346 8  21729379.508 8
  20568300.391 6                   -869571.094 6   -659220.327 8  20568309.086 8
  23028464.008 4                  -1424764.827 4  -1087270.655 8  23028472.871 8
 11  2 28 13 34 30.0000000  0 15G02G04G07G08G10G13G20G23R01R02R11R12
                                R13R17R18
  22425304.891 6                                                  22425298.81348
  20570358.539 7                   -266059.479 7   -200416.30449  20570354.15249
  22204952.078 6  22204948.055 8  -1138144.558 6   -866440.074 8  22204947.79748
  24522862.281 4                  -1364530.211 4  -1019425.23746  24522860.20746
  21495791.570 6                   -852146.438 6   -644117.92448  21495787.01248
  20167146.625 7                     75632.270 7     57420.93048  20167141.05148
  23172448.039 5                                                  23172443.75046
  21847303.195 6                    630037.724 6    475666.79747  21847296.95347
  22026974.484 5                     24230.235 5     11038.05117  22026981.285 7
  19958199.398 7                   -254132.803 7   -192882.170 9  19958206.340 9
  21730936.070 6                    498928.436 6    379261.023 8  21730943.332 8
  20565781.078 7                   -883025.973 7   -669685.207 8  20565790.316 8
  23023725.484 5                  -1450075.366 5  -1106956.615 7  23023733.824 7
  22025955.195 6                     56179.30016     33409.75618  22025961.355 8
  21901738.164 6                    -12035.20616                  21901745.723 8
 11  2 28 13 34 35.0000000  0 15G02G04G07G08G10G13G20G23R01R02R11R12
                                R13R17R18
  22422093.500 6                  -1133199.94916   -839323.46958  22422086.87948
  20569638.617 7                   -269845.020 7   -203366.03648  20569633.71548
  22201611.859 5  22201607.379 8  -1155697.554 5   -880117.690 8  22201607.59047
  24518870.461 3                  -1385503.228 3  -1035767.69146  24518869.22346
  21493318.898 6                   -865140.33216   -654242.88658  21493314.39848
  20167404.664 7                     76990.007 7     58478.95649  20167399.53149
  23174476.242 5                     43125.12115     21435.76257  23174471.71547
  21849127.109 7                    639621.186 7    483134.49748  21849120.19548
  22028606.656 6                     32956.338 6     17825.049 8  22028614.113 8
  19957458.891 8                   -258083.808 8   -195955.127 9  19957465.273 9
  21732499.094 6                    507278.461 6    385755.533 8  21732505.754 8
  20563287.070 7                   -896354.236 7   -680051.540 9  20563295.219 9
  23019013.586 3                  -1475236.045 3  -1126525.873 7  23019021.625 7
  22028429.414 4                     69423.777 4     43711.027 8  22028435.789 8
  21901120.141 6                    -15332.354 6     -9547.78818  21901127.918 8
 11  2 28 13 34 40.0000000  0 14G02G04G07G08G10G13G20G23R01R02R12R13
                                R17R18
  22418852.820 6                  -1150229.619 6   -852593.34747  22418846.82047
  20568911.398 6                   -273663.825 6   -206341.74048  20568907.07048
  22198301.180 5  22198296.824 8  -1173096.738 5   -893675.497 8  22198296.62547
  24514910.172 1                  -1406318.315 1  -1051987.34946  24514908.22746
  21490821.445 6                   -878263.866 6   -664469.01748  21490816.89148
  20167658.633 7                     78323.898 7     59518.36449  20167653.05549
  23176525.414 5                     53892.873 5     29826.23347  23176521.03147
  21850945.719 6                    649178.536 6    490581.76148  21850939.05548
  22030249.445 5                     41735.070 5     24652.964 8  22030255.895 8
  19956702.391 8                   -262119.668 8   -199094.120 9  19956709.000 9
  20560815.133 7                   -909554.758 7   -690318.635 9  20560823.781 9
  23014336.586 4                  -1500216.91114  -1145955.51617  23014344.840 7
  22030906.188 4                     82670.343 4     54013.878 7  22030910.488 7
  21900475.328 5                    -18770.918 5    -12222.281 8  21900483.254 8
 11  2 28 13 34 45.0000000  0 13G02G04G07G08G10G13G20G23R01R02R12R17
                                R18
  22415598.531 6                  -1167330.828 6   -865918.95448  22415592.56648
  20568180.813 6                   -277505.533 6   -209335.27248  20568175.98848
  22195000.547 5  22194996.008 8  -1190441.010 5   -907190.523 8  22194996.06347
  24510957.594 3                                                  24510954.94946
  21488311.461 6                   -891453.077 6   -674746.31948  21488307.12948
  20167913.664 6                     79661.523 6     60560.66548  20167907.66848
  23178589.563 4                     64738.012 4     38276.98547  23178584.94147
  21852769.031 6                    658761.332 6    498048.88548  21852762.32848
  22031903.297 6                     50575.652 6     31528.975 8  22031909.965 8
  19955943.234 8                   -266172.714 8   -202246.479 9  19955950.113 9
  20558358.875 7                   -922678.244 7   -700525.778 8  20558366.859 8
  22033374.883 2                                     64286.25817  22033380.113 7
  21899818.281 5                    -22276.355 5    -14948.711 8  21899826.734 8
 11  2 28 13 34 50.0000000  0 15G02G04G07G08G10G13G20G23R01R02R11R12
                                R13R17R18
  22412348.000 6                  -1184412.354 6   -879229.23748  22412341.42648
  20567453.719 6                   -281328.351 6   -212314.09448  20567448.83648
  22191698.563 5  22191694.832 8  -1207788.850 5   -920708.314 8  22191694.98047
  24506998.953 2                  -1447884.40312                
  21485804.586 6                   -904628.251 6   -685012.69148  21485799.71548
  20168168.992 7                     81005.878 7     61608.21149  20168163.87949
  23180649.523 5                     75566.059 5     46714.42247  23180645.55147
  21854591.453 7                    668336.898 7    505510.34848  21854584.62548
  22033554.492 6                     59400.737 6     38392.913 8  22033561.074 8
  19955184.625 8                   -270221.540 8   -205395.575 9  19955191.586 9
  21737179.094 6                    532291.47316    405210.55518  21737186.375 8
  20555902.711 7                   -935800.179 7   -710731.728 8  20555911.191 8
  23004997.438 2                  -1550080.37312  -1184738.30117  23005006.133 7
  22035845.313 4                                     74574.09817  22035851.574 7
  21899168.578 5                    -25748.529 5    -17649.306 8  21899175.988 8
 11  2 28 13 34 55.0000000  0 15G02G04G07G08G10G13G20G23R01R02R11R12
                                R13R17R18
  22409105.625 6                  -1201453.196 6   -892507.80748  22409099.39148
  20566730.648 6                   -285123.512 6   -215271.36248  20566726.42648
  22188394.383 5  22188390.035 8  -1225156.053 5   -934241.200 8  22188389.73047
  24503040.016 3                  -1468693.474 3                
  21483303.461 6                   -917771.159 6   -695253.92248  21483299.14148
  20168425.992 7                     82356.594 7     62660.71949  20168420.97349
  23182702.406 5                     86353.080 5     55119.86947  23182698.61347
  21856410.719 6                    677896.669 6    512959.52448  21856404.28148
  22035198.164 6                     68190.943 6     45229.733 8  22035205.141 8
  19954427.484 8                   -274261.845 8   -208538.026 9  19954434.105 9
  21738742.125 6                    540643.526 6    411706.571 8  21738749.695 8
  20553442.688 7                   -948940.165 7   -720951.712 8  20553450.797 8
  23000323.195 3                  -1575043.478 3  -1204154.044 7  23000331.273 7
  22038322.352 4                    122364.35514     84887.010 7  22038329.262 7
  21898527.945 5                    -29164.823 5    -20306.423 8  21898536.441 8
 11  2 28 13 35  0.0000000  0 15G02G04G07G08G10G13G20G23R01R02R11R12
                                R13R17R18
  22405870.164 6                  -1218454.875 6   -905755.86848  22405863.77348
  20566013.898 6                   -288891.762 6   -218207.65648  20566009.42648
  22185086.289 5  22185082.371 8  -1242541.296 5   -947788.147 8  22185082.04747
  24499076.125 3                  -1489522.661 3  -1086345.50756  24499073.62546
  21480808.656 6                   -930883.298 6   -705471.16948  21480803.75048
  20168684.211 7                     83713.876 7     63718.34049  20168679.29749
  23184747.398 5                     97101.128 5     63494.98247  23184743.07047
  21858226.969 7                    687441.592 7    520397.11548  21858220.26648
  22036837.328 6                     76948.010 6     52040.770 8  22036843.125 8
  19953671.305 8                   -278293.803 8   -211674.001 9  19953677.684 9
  21740305.422 6                    548996.014 6    418202.949 8  21740313.039 8
  20550979.992 7                   -962096.439 7   -731184.378 8  20550988.098 8
  22995643.445 4                  -1600032.417 4  -1223589.886 8  22995651.555 8
  22040806.586 4                    135654.580 4     95223.830 7  22040812.719 7
  21897899.125 5                    -32526.836 5    -22921.331 8  21897905.723 8
 11  2 28 13 35  5.0000000  0 13G02G04G07G08G10G13G20G23R01R02R11R12
                                R18
  22402645.008 6                  -1235403.736 6   -918962.77448  22402638.66448
  20565303.430 7                   -292626.006 7   -221117.47148  20565298.88348
  22181773.156 5  22181768.863 8  -1259951.497 5   -961354.532 8  22181768.98447
  24495107.648 4                                                  24495105.20346
  21478321.484 6                   -943952.517 6   -715654.97148  21478316.59048
  20168944.047 7                     85078.427 7     64781.62748  20168938.76248
  23186783.133 5                    107796.457 5     71828.98647  23186779.07847
  21860039.258 7                    696966.345 7    527818.99148  21860032.72348
  22038465.906 6                     85660.373 6     58817.041 8  22038473.023 8
  19952918.039 8                   -282314.512 8   -214801.214 9  19952924.328 9
  21741868.148 7                    557344.310 7    424696.077 8  21741874.234 8
  20548511.953 7                   -975279.158 7   -741437.595 8  20548520.055 8
  21897281.367 5                    -35818.627 5    -25481.607 8  21897289.695 8
 11  2 28 13 35 10.0000000  0 14G02G04G07G08G10G13G20G23R01R02R11R12
                                R13R18
  22399434.781 6                  -1252271.565 6   -932106.54448  22399428.10248
  20564601.281 7                   -296313.944 7   -223991.18048  20564596.89548
  22178452.547 5  22178447.473 8  -1277406.700 5   -974955.976 8  22178447.18447
  24491132.727 2                                                  24491129.93446
  21475847.031 6                   -956954.360 6   -725786.27648  21475842.73448
  20169204.586 7                     86448.447 7     65849.17849  20169199.32449
  23188801.070 5                    118404.586 5     80095.04547  23188797.54347
  21861845.242 7                    706456.054 7    535213.57748  21861838.62948
  22040083.445 6                     94298.159 6     65535.327 8  22040089.094 8
  19952167.320 8                   -286320.553 8   -217917.024 9  19952174.254 9
  21743428.188 5                    565674.61515    431174.91618  21743433.949 8
  20546034.523 7                   -988515.744 7   -751732.713 8  20546042.820 8
  22986263.031 2                                  -1262554.49317  22986270.441 7
  21896684.063 6                    -39009.674 6    -27963.540 8  21896691.699 8
 11  2 28 13 35 15.0000000  0 14G02G04G07G08G10G13G20G23R01R02R11R12
                                R17R18
  22396236.930 7                  -1269081.646 7   -945205.27948  22396229.51648
  20563906.242 7                   -299965.822 7   -226836.79248  20563901.53148
  22175124.211 6  22175120.789 8  -1294890.505 6   -988579.751 8  22175120.55547
  24487151.063 4                  -1552188.08914  -1135175.85156  24487149.21146
  21473382.516 7                   -969909.137 7   -735880.89648  21473377.04348
  20169467.117 7                     87825.518 7     66922.22849  20169461.30949
  23190808.391 5                    128954.252 5     88315.55747  23190805.19147
  21863646.953 7                    715923.073 7    542590.47848  21863640.07448
  22041689.719 7                    102886.235 7     72214.920 8  22041695.840 8
  19951418.328 9                   -290314.863 9   -221023.705 9  19951425.695 9
  21744984.766 7                    573999.978 7    437650.233 8  21744991.324 8
  20543550.328 8                  -1001783.049 8   -762051.725 9  20543558.469 9
  22048314.898 6                    175817.21016    126460.45517  22048318.582 7
  21896100.820 6                    -42125.351 6    -30386.840 8  21896108.164 8
 11  2 28 13 35 20.0000000  0 15G02G04G07G08G10G13G20G23R01R02R11R12
                                R13R17R18
  22393045.195 6                  -1285853.896 6   -958274.57547  22393038.53947
  20563216.359 7                   -303591.454 7   -229661.94748  20563212.03148
  22171795.336 6  22171790.258 9  -1312391.045 6  -1002216.500 9  22171790.30147
  24483166.945 4                  -1573126.360 4  -1151491.42346  24483165.43046
  21470922.625 7                   -982834.424 7   -745952.54748  21470918.01648
  20169730.156 7                     89209.353 7     68000.53049  20169724.89149
  23192809.672 6                    139466.982 6     96507.35447  23192805.33247
  21865444.570 7                    725376.338 7    549956.64948  21865438.66848
  22043289.461 6                    111442.970 6     78870.170 8  22043297.551 8
  19950671.063 8                   -294301.199 8   -224124.180 9  19950678.781 9
  21746543.438 7                    582327.421 7    444127.119 8  21746549.551 8
  20541064.391 8                  -1015064.594 8   -772381.768 9  20541073.336 9
  22976851.469 5                  -1700384.01815  -1301641.29818  22976859.945 8
  22050830.461 6                    189284.458 6    136934.918 7  22050837.555 7
  21895526.820 7                    -45187.699 7    -32768.664 8  21895533.773 8
 11  2 28 13 35 25.0000000  0 15G02G04G07G08G10G13G20G23R01R02R11R12
                                R13R17R18
  22389854.102 6                  -1302624.143 6   -971342.29148  22389846.82448
  20562527.742 7                   -307207.401 7   -232479.60148  20562524.07848
  22168465.086 6  22168461.000 9  -1329884.758 6  -1015847.959 9  22168461.27347
  24479185.047 5                                                  24479180.19946
  21468462.930 7                   -995761.580 7   -756025.67848  21468457.84048
  20169994.930 7                     90600.480 7     69084.52449  20169990.00449
  23194810.430 6                    149983.426 6    104701.96147  23194807.11747
  21867244.852 7                    734832.106 7    557324.77548  21867237.33248
  22044891.031 7                    120002.677 7     85527.697 8  22044897.625 8
  19949925.188 9                   -298285.645 9   -227223.206 9  19949931.715 9
